[
  { "name": "Промзона г. Брянска (Бежицкий р-н)", "lat": 53.2900, "lon": 34.2900, "severity": "высокая", "pollutant": "PM10, NO₂" },
  { "name": "Окружная трасса (южный участок)", "lat": 53.2000, "lon": 34.4500, "severity": "средняя", "pollutant": "PM2.5, NO₂" },
  { "name": "Неорганизованные свалки", "lat": 53.3200, "lon": 34.5200, "severity": "высокая", "pollutant": "твердые отходы" },
  { "name": "Дятьково — промышленная зона", "lat": 53.6000, "lon": 34.3300, "severity": "средняя", "pollutant": "PM10, VOC" },
  { "name": "Новозыбков — наследие техногенных воздействий", "lat": 52.5400, "lon": 31.9400, "severity": "средняя", "pollutant": "почвенные загрязнения" },
  { "name": "Клинцы — транспортный узел", "lat": 52.7500, "lon": 32.2600, "severity": "средняя", "pollutant": "NO₂, PM2.5" },
  { "name": "Почеп — склад ГСМ", "lat": 52.9200, "lon": 33.4700, "severity": "высокая", "pollutant": "ЛВЖ, углеводороды" },
  { "name": "Трубчевск — участок у трассы", "lat": 52.5900, "lon": 33.8000, "severity": "средняя", "pollutant": "PM2.5, NO₂" },
  { "name": "Севск — несанкционированный сброс", "lat": 52.1400, "lon": 34.5200, "severity": "высокая", "pollutant": "бытовые отходы" },
  { "name": "Стародуб — промплощадка", "lat": 52.5750, "lon": 32.7800, "severity": "средняя", "pollutant": "PM10" },
  { "name": "Унеча — перегрузочный узел", "lat": 52.8600, "lon": 32.7000, "severity": "средняя", "pollutant": "пыль, шум" },
  { "name": "Жуковка — участок интенсивного движения", "lat": 53.5400, "lon": 33.7500, "severity": "средняя", "pollutant": "NO₂" }
]

